{
  "city": "Izmit",
  "taxi": {
    "openingFee": 10.0,
    "costPerKm": 4.0,
    "timePerKm": 1.0
  },
  "scotter": {
    "openingFee": 5.0,
    "costPerKm": 1.5,
    "timePerKm": 3.0
  },
  "marti_tag": {
    "openingFee": 5,
    "costPerKm": 3.0,
    "timePerKm": 1.5
  },
  "duraklar": [
    {
      "id": "bus_otogar",
      "name": "Otogar (Bus)",
      "type": "bus",
      "lat": 40.78620,
      "lon": 29.93733,
      "sonDurak": false,
      "nextStops": [
        {
          "stopId": "bus_sekapark",
          "mesafe": 3.5,
          "sure": 10,
          "ucret": 3.0
        }
      ],
      "transfer": {
        "transferStopId": "tram_otogar",
        "transferMesafe": 0.4,
        "transferSure": 2,
        "transferUcret": 0.5
      }
    },
    {
      "id": "bus_sekapark",
      "name": "Sekapark (Bus)",
      "type": "bus",
      "lat": 40.76850,
      "lon": 29.92164,
      "sonDurak": false,
      "nextStops": [
        {
          "stopId": "bus_yahyakaptan",
          "mesafe": 2.0,
          "sure": 8,
          "ucret": 2.5
        },
        {
          "stopId": "bus_symbolavm",
          "mesafe": 4.0,
          "sure": 12,
          "ucret": 3.5
        },
        {
          "stopId": "bus_41burda",
          "mesafe": 4.5,
          "sure": 14,
          "ucret": 3.5
        }
      ],
      "transfer": {
        "transferStopId": "tram_sekapark",
        "transferMesafe": 0.7,
        "transferSure": 3,
        "transferUcret": 0.0
      }
    },
    {
      "id": "bus_yahyakaptan",
      "name": "Yahya Kaptan (Bus)",
      "type": "bus",
      "lat": 40.77510,
      "lon": 29.95600,
      "sonDurak": false,
      "nextStops": [
        {
          "stopId": "bus_umuttepe",
          "mesafe": 5.0,
          "sure": 12,
          "ucret": 4.0
        }
      ],
      "transfer": {
        "transferStopId": "tram_yahyakaptan",
        "transferMesafe": 0.8,
        "transferSure": 2,
        "transferUcret": 0.0
      }
    },
    {
      "id": "bus_umuttepe",
      "name": "Umuttepe (Bus)",
      "type": "bus",
      "lat": 40.82479,
      "lon": 29.93056,
      "sonDurak": true,
      "nextStops": [],
      "transfer": null
    },

    {
      "id": "bus_symbolavm",
      "name": "Symbol AVM (Bus)",
      "type": "bus",
      "lat": 40.76090,
      "lon": 29.95529,
      "sonDurak": true,
      "nextStops": [],
      "transfer": null
    },
    {
      "id": "bus_41burda",
      "name": "41 Burda AVM (Bus)",
      "type": "bus",
      "lat": 40.75850,
      "lon": 29.94118,
      "sonDurak": true,
      "nextStops": [],
      "transfer": null
    },

    {
      "id": "tram_otogar",
      "name": "Otogar (Tram)",
      "type": "tram",
      "lat": 40.78710,
      "lon": 29.94479,
      "sonDurak": false,
      "nextStops": [
        {
          "stopId": "tram_yahyakaptan",
          "mesafe": 1.2,
          "sure": 5,
          "ucret": 2.5
        }
      ],
      "transfer": {
        "transferStopId": "bus_otogar",
        "transferMesafe": 0.4,
        "transferSure": 2,
        "transferUcret": 0.5
      }
    },
    {
      "id": "tram_yahyakaptan",
      "name": "Yahya Kaptan (Tram)",
      "type": "tram",
      "lat": 40.76950,
      "lon": 29.94993,
      "sonDurak": false,
      "nextStops": [
        {
          "stopId": "tram_sekapark",
          "mesafe": 2.0,
          "sure": 6,
          "ucret": 2.0
        }
      ],
      "transfer": {
        "transferStopId": "bus_yahyakaptan",
        "transferMesafe": 0.8,
        "transferSure": 2,
        "transferUcret": 0.0
      }
    },
    {
      "id": "tram_sekapark",
      "name": "Sekapark (Tram)",
      "type": "tram",
      "lat": 40.76310,
      "lon": 29.92502,
      "sonDurak": false,
      "nextStops": [
        {
          "stopId": "tram_halkevi",
          "mesafe": 3.0,
          "sure": 7,
          "ucret": 1.5
        }
      ],
      "transfer": {
        "transferStopId": "bus_sekapark",
        "transferMesafe": 0.7,
        "transferSure": 3,
        "transferUcret": 0.0
      }
    },
    {
      "id": "tram_halkevi",
      "name": "Halkevi (Tram)",
      "type": "tram",
      "lat": 40.76420,
      "lon": 29.91493,
      "sonDurak": true,
      "nextStops": [],
      "transfer": {
        "transferStopId": "bus_sekapark",
        "transferMesafe": 1.2,
        "transferSure": 5,
        "transferUcret": 0.5
      }
    }
  ]
}